[{
  "_id": {
    "$oid": "654cc13dfd8e256371033c95"
  },
  "name": "đặng tiến hưng",
  "userId": {
    "$oid": "6527d492654b2fa462bd852e"
  },
  "phone": "0948937769",
  "address": "dị sử 2, mỹ thành, mỹ lộc, nam định",
  "default": true,
  "__v": 0
},{
  "_id": {
    "$oid": "654cc7c6fd8e256371033d6c"
  },
  "name": "dang tien hung",
  "userId": {
    "$oid": "6526a503f1ff12eb82f07d1f"
  },
  "phone": "0123456789",
  "address": "dị sử mỹ thành mỹ lộc nam định",
  "default": false,
  "__v": 0
},{
  "_id": {
    "$oid": "654cc7ec6bbc9e2212ec3ae3"
  },
  "name": "dang tien hung",
  "userId": {
    "$oid": "6526a503f1ff12eb82f07d1f"
  },
  "phone": "0123456789",
  "address": "dị sử mỹ thành mỹ lộc nam định",
  "default": false,
  "__v": 0
},{
  "_id": {
    "$oid": "654cc80059b40da7cc1a1bb9"
  },
  "name": "dang tien hung",
  "userId": {
    "$oid": "6526a503f1ff12eb82f07d1f"
  },
  "phone": "0123456789",
  "address": "dị sử mỹ thành mỹ lộc nam định",
  "default": false,
  "__v": 0
},{
  "_id": {
    "$oid": "654cc83559b40da7cc1a1bbc"
  },
  "name": "dang tien hung",
  "userId": {
    "$oid": "6526a503f1ff12eb82f07d1f"
  },
  "phone": "0123456789",
  "address": "dị sử mỹ thành mỹ lộc nam định",
  "default": false,
  "__v": 0
},{
  "_id": {
    "$oid": "654ccafe59b40da7cc1a1c19"
  },
  "name": "asdf",
  "userId": {
    "$oid": "6526a503f1ff12eb82f07d1f"
  },
  "phone": "0123456789",
  "address": "adsfasdf",
  "default": false,
  "__v": 0
},{
  "_id": {
    "$oid": "654ccaff59b40da7cc1a1c1c"
  },
  "name": "asdf",
  "userId": {
    "$oid": "6526a503f1ff12eb82f07d1f"
  },
  "phone": "0123456789",
  "address": "adsfasdf",
  "default": false,
  "__v": 0
},{
  "_id": {
    "$oid": "654ccb0059b40da7cc1a1c1f"
  },
  "name": "asdf",
  "userId": {
    "$oid": "6526a503f1ff12eb82f07d1f"
  },
  "phone": "0123456789",
  "address": "adsfasdf",
  "default": false,
  "__v": 0
},{
  "_id": {
    "$oid": "654ccb6e59b40da7cc1a1c31"
  },
  "name": "ádfasdf",
  "userId": {
    "$oid": "6526a503f1ff12eb82f07d1f"
  },
  "phone": "0123456789",
  "address": "ádfasdfasdfasdf",
  "default": false,
  "__v": 0
},{
  "_id": {
    "$oid": "65510587b9ee4c9cdc62e218"
  },
  "name": "hưng đặng tiến",
  "userId": {
    "$oid": "6550dbe8d7141ebb65f02834"
  },
  "phone": "0946937769",
  "address": "dị sử",
  "default": false,
  "__v": 0
},{
  "_id": {
    "$oid": "655105c066b8c579341d15d2"
  },
  "name": "hưng đặng tiến",
  "userId": {
    "$oid": "6550dbe8d7141ebb65f02834"
  },
  "phone": "0946937769",
  "address": "dị sử",
  "default": false,
  "__v": 0
},{
  "_id": {
    "$oid": "655105ca66b8c579341d15d8"
  },
  "name": "hưng đặng tiến",
  "userId": {
    "$oid": "6550dbe8d7141ebb65f02834"
  },
  "phone": "0946937769",
  "address": "dị sử3 ",
  "default": false,
  "__v": 0
},{
  "_id": {
    "$oid": "655105e066b8c579341d15de"
  },
  "name": "hưng đặng tiến",
  "userId": {
    "$oid": "6550dbe8d7141ebb65f02834"
  },
  "phone": "0946937769",
  "address": "dị sử ádfasdfas",
  "default": false,
  "__v": 0
},{
  "_id": {
    "$oid": "655106415163b5e4c893fd48"
  },
  "name": "hưng đặng tiến",
  "userId": {
    "$oid": "6550dbe8d7141ebb65f02834"
  },
  "phone": "0946937769",
  "address": "dị sử 456",
  "default": false,
  "__v": 0
},{
  "_id": {
    "$oid": "6551064a5163b5e4c893fd4d"
  },
  "name": "hưng đặng tiến",
  "userId": {
    "$oid": "6550dbe8d7141ebb65f02834"
  },
  "phone": "0946937769",
  "address": "dị sử 4567",
  "default": false,
  "__v": 0
},{
  "_id": {
    "$oid": "655106555163b5e4c893fd54"
  },
  "name": "hưng đặng tiến",
  "userId": {
    "$oid": "6550dbe8d7141ebb65f02834"
  },
  "phone": "0946937769",
  "address": "dị sử 2342",
  "default": true,
  "__v": 0
},{
  "_id": {
    "$oid": "6552429ce81d2c145de68872"
  },
  "name": "hưng đặng tiến",
  "userId": {
    "$oid": "654f9ee8bcf47ef00074b50d"
  },
  "phone": "0946937769",
  "address": "dị sử",
  "default": true,
  "__v": 0
},{
  "_id": {
    "$oid": "6552429de81d2c145de68875"
  },
  "name": "hưng đặng tiến",
  "userId": {
    "$oid": "654f9ee8bcf47ef00074b50d"
  },
  "phone": "0946937769",
  "address": "dị sử",
  "default": false,
  "__v": 0
},{
  "_id": {
    "$oid": "6561a304d93448789c728e47"
  },
  "name": "444444444444444",
  "userId": {
    "$oid": "65275b7e06a322a32c4cb336"
  },
  "phone": "4444444",
  "address": "4444444",
  "default": false,
  "__v": 0
},{
  "_id": {
    "$oid": "65636113a8d1677a20c1e5ee"
  },
  "name": "long",
  "userId": {
    "$oid": "65275b7e06a322a32c4cb336"
  },
  "phone": "0865254850",
  "address": "haf noi",
  "default": false,
  "__v": 0
},{
  "_id": {
    "$oid": "656368efa8d1677a20c1e6a7"
  },
  "name": "test",
  "userId": {
    "$oid": "65275b7e06a322a32c4cb336"
  },
  "phone": "08854",
  "address": "ttt",
  "default": false,
  "__v": 0
},{
  "_id": {
    "$oid": "656d3ffe780f3cf19a19d216"
  },
  "name": "ee",
  "userId": {
    "$oid": "65275b7e06a322a32c4cb336"
  },
  "phone": "3333",
  "address": "3333",
  "default": true,
  "__v": 0
},{
  "_id": {
    "$oid": "656e048ade4ab6b2925b8f01"
  },
  "name": "dđ",
  "userId": {
    "$oid": "65275b1c06a322a32c4cb32e"
  },
  "phone": "333333",
  "address": "3333",
  "default": true,
  "__v": 0
},{
  "_id": {
    "$oid": "656f589a38c429bcfa57fd72"
  },
  "name": "dsàdsf update",
  "userId": {
    "$oid": "6527b063654b2fa462bd84b0"
  },
  "phone": "0865247502",
  "address": "ádfdsfsdf",
  "default": false,
  "__v": 0
},{
  "_id": {
    "$oid": "657050085f65584abe342ace"
  },
  "name": "Quang Huy",
  "userId": {
    "$oid": "652e69ad0eae21b8ece84fad"
  },
  "phone": "0975650977",
  "address": "Minh Khai,Từ Liêm, Hà Nội",
  "default": true,
  "__v": 0
},{
  "_id": {
    "$oid": "6570506f5f65584abe342b1d"
  },
  "name": "Huy Quang",
  "userId": {
    "$oid": "652e69ad0eae21b8ece84fad"
  },
  "phone": "0975650978",
  "address": "Ngõ 177, Kiều Mai, Phúc Diễn, Từ Liêm, Hà Nội",
  "default": false,
  "__v": 0
},{
  "_id": {
    "$oid": "657051045f65584abe342b26"
  },
  "name": "Khách Hàng 2",
  "userId": {
    "$oid": "652e69ad0eae21b8ece84fad"
  },
  "phone": "0977755677",
  "address": "khu 2, Hoàng Cương, Thanh Ba, Phú Thọ",
  "default": false,
  "__v": 0
},{
  "_id": {
    "$oid": "6571db498f07589ca8767f06"
  },
  "name": "hưng đặng tiến",
  "userId": {
    "$oid": "6571d95f8f07589ca87678eb"
  },
  "phone": "0946937769",
  "address": "dị sử",
  "default": true,
  "__v": 0
},{
  "_id": {
    "$oid": "6579edf1ffa56adbd0c89238"
  },
  "name": "Quang huy",
  "userId": {
    "$oid": "6579e749ffa56adbd0c8913b"
  },
  "phone": "0975650977",
  "address": "Hà Nội",
  "default": true,
  "__v": 0
},{
  "_id": {
    "$oid": "657a765f8ec54f59bec329ba"
  },
  "name": "Đạt",
  "userId": {
    "$oid": "6527b063654b2fa462bd84b0"
  },
  "phone": "0981285482",
  "address": "Nam Từ Liêm - Hà Nội",
  "default": false,
  "__v": 0
},{
  "_id": {
    "$oid": "657d29c27d2292ce92086520"
  },
  "name": "Quang Huy",
  "userId": {
    "$oid": "657d2395acc94a8dbc790445"
  },
  "phone": "0975650977",
  "address": "Minh khai, nam từ liêm, hà nội",
  "default": true,
  "__v": 0
},{
  "_id": {
    "$oid": "657dcb372c673f0bb32a04be"
  },
  "name": "Đạt Nguyễn",
  "userId": {
    "$oid": "6527b063654b2fa462bd84b0"
  },
  "phone": "0865257620",
  "address": "Nam Từ Liêm, Hà Nội",
  "default": true,
  "__v": 0,
  "geoLocation": {
    "lat": 21.0034608,
    "lng": 105.7703287
  }
},{
  "_id": {
    "$oid": "657ea9abbe08791c7cb3be02"
  },
  "name": "gia 123 235 789",
  "userId": {
    "$oid": "6554902630635a2d7e5e53a0"
  },
  "phone": "0373379525",
  "address": "Trường Tiểu học Hồng Thái, Hồng Thái, Kiến Xương, Thái Bình",
  "geoLocation": {
    "lat": 20.45989266600003,
    "lng": 106.46024488100005
  },
  "default": true,
  "__v": 0
},{
  "_id": {
    "$oid": "657ea9bdbe08791c7cb3be07"
  },
  "name": "akjhgakhg",
  "userId": {
    "$oid": "6554902630635a2d7e5e53a0"
  },
  "phone": "9999999999",
  "address": "Cảng hàng không Cà Mau, Lý Thường Kiệt, Phường 6, Cà Mau, Cà Mau",
  "geoLocation": {
    "lat": 9.176324059000024,
    "lng": 105.17593814200006
  },
  "default": false,
  "__v": 0
},{
  "_id": {
    "$oid": "657ec6b7be08791c7cb3c7c3"
  },
  "name": "gia 123 235 789",
  "userId": {
    "$oid": "6554902630635a2d7e5e53a0"
  },
  "phone": "1234567890",
  "address": "Cao đẳng fpt polytechnic, Vân Hà, Đông Anh, Hà Nội",
  "geoLocation": {
    "lat": 21.1490948,
    "lng": 105.9109659
  },
  "default": false,
  "__v": 0
},{
  "_id": {
    "$oid": "657fd3a6570d63d2ee3c1931"
  },
  "name": "lllll",
  "userId": {
    "$oid": "65289f981161363425432183"
  },
  "phone": "999999999",
  "address": "Xã Hồng Hà, Đan Phượng, Hà Nội",
  "geoLocation": {
    "lat": 21.13130478200003,
    "lng": 105.68977495700005
  },
  "default": true,
  "__v": 0
},{
  "_id": {
    "$oid": "6581323bf185ad1d826a005b"
  },
  "name": "Quang Huy",
  "userId": {
    "$oid": "652e5dac0eae21b8ece84f66"
  },
  "phone": "0975650977",
  "address": "Kiều Mai, Phúc Diễn, Bắc Từ Liêm, Hà Nội",
  "default": true,
  "__v": 0
},{
  "_id": {
    "$oid": "658156bb7ee47c7cbdfb2e83"
  },
  "name": "long",
  "userId": {
    "$oid": "6571dc6656547def432fd3a3"
  },
  "phone": "0865257620",
  "address": "Hà Nội, Việt Nam",
  "geoLocation": {
    "lat": 21.02819540300004,
    "lng": 105.85415977800005
  },
  "default": true,
  "__v": 0
},{
  "_id": {
    "$oid": "658156dd7ee47c7cbdfb2e8a"
  },
  "name": "Hoàng Long 1",
  "userId": {
    "$oid": "6571dc6656547def432fd3a3"
  },
  "phone": "0865257620",
  "address": "Nam Từ Liêm, Hà Nội",
  "geoLocation": {
    "lat": 21.0034608,
    "lng": 105.7703287
  },
  "default": false,
  "__v": 0
},{
  "_id": {
    "$oid": "65f3f7c9b1d2a2a62638f9c5"
  },
  "name": "thành đô",
  "userId": {
    "$oid": "6527baf2654b2fa462bd84e8"
  },
  "phone": "23412323132",
  "address": "Mỹ  Đình, Phường Mỹ Đình 2, Quận Nam Từ Liêm, Thành phố Hà Nội",
  "geoLocation": {
    "lat": 21.027092343768356,
    "lng": 105.77346377194684
  },
  "default": true,
  "__v": 0
}]